{"type":"FeatureCollection","features":[{"type":"Feature","geometry":{"type":"Polygon","coordinates":[[[-3.1871805,55.9444875],[-3.1870423,55.9441939],[-3.1869766,55.9442036],[-3.1868975,55.9440482],[-3.1863302,55.9441323],[-3.1864053,55.9442967],[-3.1863034,55.944311],[-3.1863396,55.9443711],[-3.1864093,55.9443621],[-3.1864254,55.9443974],[-3.1862269,55.9444237],[-3.1863946,55.9445701],[-3.1864308,55.9445859],[-3.1864884,55.9445919],[-3.1871805,55.9444875]]]},"properties":{"name":"Appleton Tower","fill":"#ff0000"}},{"type":"Feature","geometry":{"type":"Polygon","coordinates":[[[-3.1866977,55.9433602],[-3.1865562,55.9430666],[-3.1863456,55.9430985],[-3.1864864,55.9433925],[-3.1866977,55.9433602]]]},"properties":{"name":"David Hume Tower","fill":"#ff0000"}},{"type":"Feature","geometry":{"type":"Polygon","coordinates":[[[-3.1897084,55.9428082],[-3.1894751,55.9423313],[-3.1882721,55.9425145],[-3.1885055,55.942993],[-3.1897084,55.9428082]]]},"properties":{"name":"Main Library","fill":"#ff0000"}},{"type":"Feature","geometry":{"type":"Polygon","coordinates":[[[-3.188079,55.945418],[-3.1876338,55.9445829],[-3.1869176,55.9447015],[-3.1870463,55.9449419],[-3.1869096,55.9449644],[-3.1867808,55.9448157],[-3.1865662,55.9448773],[-3.1871134,55.9455532],[-3.1872958,55.9455051],[-3.1878322,55.9454601],[-3.188079,55.945418]]]},"properties":{"name":"Informatics Forum","fill":"#ff0000"}},{"type":"Feature","geometry":{"type":"Point","coordinates":[-3.191161,55.945976]},"properties":{"marker-size":"medium","location":"simple.rust.audio","marker-symbol":"danger","marker-color":"#ff4000","rgb-string":"#ff4000"}},{"type":"Feature","geometry":{"type":"Point","coordinates":[-3.189138,55.944197]},"properties":{"marker-size":"medium","location":"spoon.invest.every","marker-symbol":"lighthouse","marker-color":"#40ff00","rgb-string":"#40ff00"}},{"type":"Feature","geometry":{"type":"Point","coordinates":[-3.189379,55.945949]},"properties":{"marker-size":"medium","location":"coherent.saints.stuck","marker-symbol":"danger","marker-color":"#ff8000","rgb-string":"#ff8000"}},{"type":"Feature","geometry":{"type":"Point","coordinates":[-3.189908,55.942904]},"properties":{"marker-size":"medium","location":"second.launch.miles","marker-symbol":"lighthouse","marker-color":"#00ff00","rgb-string":"#00ff00"}},{"type":"Feature","geometry":{"type":"Point","coordinates":[-3.187211,55.943335]},"properties":{"marker-size":"medium","location":"scale.chair.kinds","marker-symbol":"lighthouse","marker-color":"#c0ff00","rgb-string":"#c0ff00"}},{"type":"Feature","geometry":{"type":"Point","coordinates":[-3.186007,55.943901]},"properties":{"marker-size":"medium","location":"teams.mild.played","marker-symbol":"danger","marker-color":"#ff8000","rgb-string":"#ff8000"}},{"type":"Feature","geometry":{"type":"Point","coordinates":[-3.187982,55.943497]},"properties":{"marker-size":"medium","location":"scare.cubs.resort","marker-symbol":"lighthouse","marker-color":"#40ff00","rgb-string":"#40ff00"}},{"type":"Feature","geometry":{"type":"Point","coordinates":[-3.18933,55.945653]},"properties":{"marker-size":"medium","location":"museum.spicy.horns","marker-symbol":"danger","marker-color":"#ff4000","rgb-string":"#ff4000"}},{"type":"Feature","geometry":{"type":"Point","coordinates":[-3.186537,55.944925]},"properties":{"marker-size":"medium","location":"laws.merit.bleak","marker-symbol":"danger","marker-color":"#ff8000","rgb-string":"#ff8000"}},{"type":"Feature","geometry":{"type":"Point","coordinates":[-3.186248,55.942796]},"properties":{"marker-size":"medium","location":"under.retire.bump","marker-symbol":"danger","marker-color":"#ff0000","rgb-string":"#ff0000"}},{"type":"Feature","geometry":{"type":"Point","coordinates":[-3.190727,55.943092]},"properties":{"marker-size":"medium","location":"relate.chill.vest","marker-symbol":"lighthouse","marker-color":"#40ff00","rgb-string":"#40ff00"}},{"type":"Feature","geometry":{"type":"Point","coordinates":[-3.188319,55.945518]},"properties":{"marker-size":"medium","location":"skills.less.herb","marker-symbol":"lighthouse","marker-color":"#c0ff00","rgb-string":"#c0ff00"}},{"type":"Feature","geometry":{"type":"Point","coordinates":[-3.186777,55.944575]},"properties":{"marker-size":"medium","location":"artist.gets.react","marker-symbol":"danger","marker-color":"#ff8000","rgb-string":"#ff8000"}},{"type":"Feature","geometry":{"type":"Point","coordinates":[-3.188704,55.945168]},"properties":{"marker-size":"medium","location":"rooms.lamp.teach","marker-symbol":"danger","marker-color":"#ffc000","rgb-string":"#ffc000"}},{"type":"Feature","geometry":{"type":"Point","coordinates":[-3.191594,55.945195]},"properties":{"marker-size":"medium","location":"hills.feels.tunes","marker-symbol":"danger","marker-color":"#ff8000","rgb-string":"#ff8000"}},{"type":"Feature","geometry":{"type":"Point","coordinates":[-3.187259,55.945653]},"properties":{"marker-size":"medium","location":"diner.leaves.mutual","marker-symbol":"danger","marker-color":"#ff4000","rgb-string":"#ff4000"}},{"type":"Feature","geometry":{"type":"Point","coordinates":[-3.184658,55.943874]},"properties":{"marker-size":"medium","location":"rider.mile.lime","marker-symbol":"danger","marker-color":"#ff0000","rgb-string":"#ff0000"}},{"type":"Feature","geometry":{"type":"Point","coordinates":[-3.190583,55.942823]},"properties":{"marker-size":"medium","location":"tonic.bliss.cove","marker-symbol":"cross","marker-color":"#000000","rgb-string":"#000000"}},{"type":"Feature","geometry":{"type":"Point","coordinates":[-3.192221,55.945114]},"properties":{"marker-size":"medium","location":"useful.hike.trades","marker-symbol":"danger","marker-color":"#ff8000","rgb-string":"#ff8000"}},{"type":"Feature","geometry":{"type":"Point","coordinates":[-3.184513,55.945302]},"properties":{"marker-size":"medium","location":"settle.title.united","marker-symbol":"danger","marker-color":"#ff0000","rgb-string":"#ff0000"}},{"type":"Feature","geometry":{"type":"Point","coordinates":[-3.190294,55.943712]},"properties":{"marker-size":"medium","location":"sculpture.shot.melon","marker-symbol":"lighthouse","marker-color":"#40ff00","rgb-string":"#40ff00"}},{"type":"Feature","geometry":{"type":"Point","coordinates":[-3.190197,55.943443]},"properties":{"marker-size":"medium","location":"arts.dish.scarcely","marker-symbol":"lighthouse","marker-color":"#40ff00","rgb-string":"#40ff00"}},{"type":"Feature","geometry":{"type":"Point","coordinates":[-3.18697,55.942688]},"properties":{"marker-size":"medium","location":"strut.river.surely","marker-symbol":"danger","marker-color":"#ffc000","rgb-string":"#ffc000"}},{"type":"Feature","geometry":{"type":"Point","coordinates":[-3.189186,55.945087]},"properties":{"marker-size":"medium","location":"number.exist.rate","marker-symbol":"lighthouse","marker-color":"#80ff00","rgb-string":"#80ff00"}},{"type":"Feature","geometry":{"type":"Point","coordinates":[-3.188801,55.945437]},"properties":{"marker-size":"medium","location":"shady.soft.phones","marker-symbol":"danger","marker-color":"#ff8000","rgb-string":"#ff8000"}},{"type":"Feature","geometry":{"type":"Point","coordinates":[-3.186537,55.944063]},"properties":{"marker-size":"medium","location":"lime.learns.front","marker-symbol":"danger","marker-color":"#ff4000","rgb-string":"#ff4000"}},{"type":"Feature","geometry":{"type":"Point","coordinates":[-3.188415,55.944305]},"properties":{"marker-size":"medium","location":"trades.rare.cable","marker-symbol":"lighthouse","marker-color":"#40ff00","rgb-string":"#40ff00"}},{"type":"Feature","geometry":{"type":"Point","coordinates":[-3.191161,55.942742]},"properties":{"marker-size":"medium","location":"along.spill.limp","marker-symbol":"lighthouse","marker-color":"#00ff00","rgb-string":"#00ff00"}},{"type":"Feature","geometry":{"type":"Point","coordinates":[-3.187018,55.943982]},"properties":{"marker-size":"medium","location":"renew.ears.tend","marker-symbol":"lighthouse","marker-color":"#80ff00","rgb-string":"#80ff00"}},{"type":"Feature","geometry":{"type":"Point","coordinates":[-3.186922,55.945437]},"properties":{"marker-size":"medium","location":"spent.spoon.bolt","marker-symbol":"danger","marker-color":"#ff4000","rgb-string":"#ff4000"}},{"type":"Feature","geometry":{"type":"Point","coordinates":[-3.187307,55.944494]},"properties":{"marker-size":"medium","location":"only.fairly.rift","marker-symbol":"danger","marker-color":"#ff8000","rgb-string":"#ff8000"}},{"type":"Feature","geometry":{"type":"Point","coordinates":[-3.189957,55.94603]},"properties":{"marker-size":"medium","location":"love.behind.orchestra","marker-symbol":"danger","marker-color":"#ff0000","rgb-string":"#ff0000"}},{"type":"Feature","geometry":{"type":"Point","coordinates":[-3.1875,55.943874]},"properties":{"marker-size":"medium","location":"begins.spider.drips","marker-symbol":"lighthouse","marker-color":"#c0ff00","rgb-string":"#c0ff00"}},{"type":"Feature","geometry":{"type":"LineString","coordinates":[[-3.188396,55.944425],[-3.1884481,55.9441296],[-3.1887435,55.9441817],[-3.1890435,55.9441817],[-3.1893254,55.944079],[-3.1896074,55.9439764],[-3.1898893,55.9438738],[-3.1901712,55.9437712],[-3.1901712,55.9434712],[-3.1900686,55.9431893],[-3.1899186,55.9429295],[-3.190214,55.9428774],[-3.1905094,55.9428253],[-3.1907023,55.9430551],[-3.1909977,55.943003],[-3.1911477,55.9427432],[-3.1912503,55.9430251],[-3.1913529,55.9433071],[-3.1915029,55.9435669],[-3.1916055,55.9438488],[-3.1917081,55.9441307],[-3.1917602,55.9444261],[-3.1919901,55.944619],[-3.1922199,55.9448118],[-3.1922199,55.9451118],[-3.1919244,55.9451639],[-3.191629,55.945216],[-3.191479,55.9454758],[-3.1912861,55.9457056],[-3.1911835,55.9459875],[-3.1908835,55.9459875],[-3.1905835,55.9459875],[-3.1902835,55.9459875],[-3.1899881,55.9460396],[-3.1896927,55.9459875],[-3.1893972,55.9459354],[-3.1893451,55.94564],[-3.1891951,55.9453802],[-3.1891951,55.9450802],[-3.1888997,55.9451323],[-3.1887971,55.9454142],[-3.1885016,55.9454663],[-3.1882062,55.9455184],[-3.1879107,55.9455704],[-3.1876153,55.9456225],[-3.1873153,55.9456225],[-3.1870199,55.9455704],[-3.1867601,55.9454204],[-3.1867601,55.9451204],[-3.1865302,55.9449276],[-3.1862348,55.9449797],[-3.1859394,55.9450318],[-3.1856439,55.9450839],[-3.185362,55.9451865],[-3.1850801,55.9452891],[-3.1847982,55.9453917],[-3.1845163,55.9452891],[-3.1845684,55.9449937],[-3.1845684,55.9446937],[-3.1845163,55.9443982],[-3.1847091,55.9441684],[-3.184657,55.943873],[-3.184957,55.943873],[-3.185257,55.943873],[-3.185557,55.943873],[-3.185857,55.943873],[-3.1859091,55.9435775],[-3.1859612,55.9432821],[-3.186191,55.9430892],[-3.1862431,55.9427938],[-3.1865386,55.9427417],[-3.186834,55.9426896],[-3.186984,55.9429494],[-3.187134,55.9432092],[-3.1874159,55.9433118],[-3.1877114,55.9433639],[-3.1879712,55.9435139],[-3.1877414,55.9437068],[-3.1874815,55.9438568],[-3.1871996,55.9439594],[-3.1869042,55.9440115],[-3.1866088,55.9440636],[-3.1869042,55.9440115],[-3.187134,55.9442043],[-3.1871861,55.9444997],[-3.1868907,55.9445518],[-3.1871861,55.9444997],[-3.1874861,55.9444997],[-3.1877861,55.9444997],[-3.1880815,55.9444477],[-3.1883815,55.9444477]]},"properties":{}}]}