{"type":"FeatureCollection","features":[{"type":"Feature","geometry":{"type":"Polygon","coordinates":[[[-3.1871805,55.9444875],[-3.1870423,55.9441939],[-3.1869766,55.9442036],[-3.1868975,55.9440482],[-3.1863302,55.9441323],[-3.1864053,55.9442967],[-3.1863034,55.944311],[-3.1863396,55.9443711],[-3.1864093,55.9443621],[-3.1864254,55.9443974],[-3.1862269,55.9444237],[-3.1863946,55.9445701],[-3.1864308,55.9445859],[-3.1864884,55.9445919],[-3.1871805,55.9444875]]]},"properties":{"name":"Appleton Tower","fill":"#ff0000"}},{"type":"Feature","geometry":{"type":"Polygon","coordinates":[[[-3.1866977,55.9433602],[-3.1865562,55.9430666],[-3.1863456,55.9430985],[-3.1864864,55.9433925],[-3.1866977,55.9433602]]]},"properties":{"name":"David Hume Tower","fill":"#ff0000"}},{"type":"Feature","geometry":{"type":"Polygon","coordinates":[[[-3.1897084,55.9428082],[-3.1894751,55.9423313],[-3.1882721,55.9425145],[-3.1885055,55.942993],[-3.1897084,55.9428082]]]},"properties":{"name":"Main Library","fill":"#ff0000"}},{"type":"Feature","geometry":{"type":"Polygon","coordinates":[[[-3.188079,55.945418],[-3.1876338,55.9445829],[-3.1869176,55.9447015],[-3.1870463,55.9449419],[-3.1869096,55.9449644],[-3.1867808,55.9448157],[-3.1865662,55.9448773],[-3.1871134,55.9455532],[-3.1872958,55.9455051],[-3.1878322,55.9454601],[-3.188079,55.945418]]]},"properties":{"name":"Informatics Forum","fill":"#ff0000"}},{"type":"Feature","geometry":{"type":"Point","coordinates":[-3.189234,55.943012]},"properties":{"marker-size":"medium","location":"region.passes.pencil","marker-symbol":"lighthouse","marker-color":"#80ff00","rgb-string":"#80ff00"}},{"type":"Feature","geometry":{"type":"Point","coordinates":[-3.190197,55.943443]},"properties":{"marker-size":"medium","location":"arts.dish.scarcely","marker-symbol":"lighthouse","marker-color":"#40ff00","rgb-string":"#40ff00"}},{"type":"Feature","geometry":{"type":"Point","coordinates":[-3.190727,55.943092]},"properties":{"marker-size":"medium","location":"relate.chill.vest","marker-symbol":"lighthouse","marker-color":"#00ff00","rgb-string":"#00ff00"}},{"type":"Feature","geometry":{"type":"Point","coordinates":[-3.186922,55.945437]},"properties":{"marker-size":"medium","location":"spent.spoon.bolt","marker-symbol":"danger","marker-color":"#ffc000","rgb-string":"#ffc000"}},{"type":"Feature","geometry":{"type":"Point","coordinates":[-3.187693,55.942769]},"properties":{"marker-size":"medium","location":"panic.squad.danger","marker-symbol":"danger","marker-color":"#ffc000","rgb-string":"#ffc000"}},{"type":"Feature","geometry":{"type":"Point","coordinates":[-3.184899,55.944736]},"properties":{"marker-size":"medium","location":"slide.leads.stores","marker-symbol":"cross","marker-color":"#000000","rgb-string":"#000000"}},{"type":"Feature","geometry":{"type":"Point","coordinates":[-3.191016,55.944979]},"properties":{"marker-size":"medium","location":"shapes.sheep.nature","marker-symbol":"danger","marker-color":"#ff8000","rgb-string":"#ff8000"}},{"type":"Feature","geometry":{"type":"Point","coordinates":[-3.1875,55.943874]},"properties":{"marker-size":"medium","location":"begins.spider.drips","marker-symbol":"lighthouse","marker-color":"#80ff00","rgb-string":"#80ff00"}},{"type":"Feature","geometry":{"type":"Point","coordinates":[-3.189523,55.943551]},"properties":{"marker-size":"medium","location":"cars.attend.hotels","marker-symbol":"lighthouse","marker-color":"#40ff00","rgb-string":"#40ff00"}},{"type":"Feature","geometry":{"type":"Point","coordinates":[-3.186392,55.944656]},"properties":{"marker-size":"medium","location":"rated.fired.crowds","marker-symbol":"danger","marker-color":"#ff4000","rgb-string":"#ff4000"}},{"type":"Feature","geometry":{"type":"Point","coordinates":[-3.191113,55.943631]},"properties":{"marker-size":"medium","location":"loaf.cheer.slave","marker-symbol":"lighthouse","marker-color":"#00ff00","rgb-string":"#00ff00"}},{"type":"Feature","geometry":{"type":"Point","coordinates":[-3.188849,55.943658]},"properties":{"marker-size":"medium","location":"labels.hotels.alert","marker-symbol":"lighthouse","marker-color":"#40ff00","rgb-string":"#40ff00"}},{"type":"Feature","geometry":{"type":"Point","coordinates":[-3.186296,55.945761]},"properties":{"marker-size":"medium","location":"posts.kicked.universally","marker-symbol":"danger","marker-color":"#ff4000","rgb-string":"#ff4000"}},{"type":"Feature","geometry":{"type":"Point","coordinates":[-3.185814,55.94603]},"properties":{"marker-size":"medium","location":"renew.slows.basket","marker-symbol":"danger","marker-color":"#ff8000","rgb-string":"#ff8000"}},{"type":"Feature","geometry":{"type":"Point","coordinates":[-3.189908,55.942904]},"properties":{"marker-size":"medium","location":"second.launch.miles","marker-symbol":"lighthouse","marker-color":"#00ff00","rgb-string":"#00ff00"}},{"type":"Feature","geometry":{"type":"Point","coordinates":[-3.191113,55.943901]},"properties":{"marker-size":"medium","location":"spicy.bunch.shady","marker-symbol":"lighthouse","marker-color":"#00ff00","rgb-string":"#00ff00"}},{"type":"Feature","geometry":{"type":"Point","coordinates":[-3.187645,55.944143]},"properties":{"marker-size":"medium","location":"bound.ends.matter","marker-symbol":"lighthouse","marker-color":"#40ff00","rgb-string":"#40ff00"}},{"type":"Feature","geometry":{"type":"Point","coordinates":[-3.190438,55.943982]},"properties":{"marker-size":"medium","location":"pump.wheels.hulk","marker-symbol":"cross","marker-color":"#000000","rgb-string":"#000000"}},{"type":"Feature","geometry":{"type":"Point","coordinates":[-3.184465,55.944952]},"properties":{"marker-size":"medium","location":"sports.topic.clocks","marker-symbol":"danger","marker-color":"#ffc000","rgb-string":"#ffc000"}},{"type":"Feature","geometry":{"type":"Point","coordinates":[-3.184513,55.945302]},"properties":{"marker-size":"medium","location":"settle.title.united","marker-symbol":"danger","marker-color":"#ff4000","rgb-string":"#ff4000"}},{"type":"Feature","geometry":{"type":"Point","coordinates":[-3.184658,55.943874]},"properties":{"marker-size":"medium","location":"rider.mile.lime","marker-symbol":"danger","marker-color":"#ff8000","rgb-string":"#ff8000"}},{"type":"Feature","geometry":{"type":"Point","coordinates":[-3.186729,55.945168]},"properties":{"marker-size":"medium","location":"dragon.bottle.crisp","marker-symbol":"danger","marker-color":"#ffc000","rgb-string":"#ffc000"}},{"type":"Feature","geometry":{"type":"Point","coordinates":[-3.188704,55.945168]},"properties":{"marker-size":"medium","location":"rooms.lamp.teach","marker-symbol":"cross","marker-color":"#000000","rgb-string":"#000000"}},{"type":"Feature","geometry":{"type":"Point","coordinates":[-3.187018,55.942877]},"properties":{"marker-size":"medium","location":"valve.elaborate.fortunate","marker-symbol":"danger","marker-color":"#ff8000","rgb-string":"#ff8000"}},{"type":"Feature","geometry":{"type":"Point","coordinates":[-3.190294,55.943712]},"properties":{"marker-size":"medium","location":"sculpture.shot.melon","marker-symbol":"lighthouse","marker-color":"#40ff00","rgb-string":"#40ff00"}},{"type":"Feature","geometry":{"type":"Point","coordinates":[-3.191161,55.945976]},"properties":{"marker-size":"medium","location":"simple.rust.audio","marker-symbol":"danger","marker-color":"#ffc000","rgb-string":"#ffc000"}},{"type":"Feature","geometry":{"type":"Point","coordinates":[-3.18567,55.944359]},"properties":{"marker-size":"medium","location":"atoms.vanish.foods","marker-symbol":"danger","marker-color":"#ff8000","rgb-string":"#ff8000"}},{"type":"Feature","geometry":{"type":"Point","coordinates":[-3.187307,55.944494]},"properties":{"marker-size":"medium","location":"only.fairly.rift","marker-symbol":"cross","marker-color":"#000000","rgb-string":"#000000"}},{"type":"Feature","geometry":{"type":"Point","coordinates":[-3.187982,55.943497]},"properties":{"marker-size":"medium","location":"scare.cubs.resort","marker-symbol":"cross","marker-color":"#000000","rgb-string":"#000000"}},{"type":"Feature","geometry":{"type":"Point","coordinates":[-3.185621,55.943065]},"properties":{"marker-size":"medium","location":"toned.deflection.bland","marker-symbol":"danger","marker-color":"#ffc000","rgb-string":"#ffc000"}},{"type":"Feature","geometry":{"type":"Point","coordinates":[-3.18933,55.945653]},"properties":{"marker-size":"medium","location":"museum.spicy.horns","marker-symbol":"danger","marker-color":"#ff0000","rgb-string":"#ff0000"}},{"type":"Feature","geometry":{"type":"Point","coordinates":[-3.188897,55.945707]},"properties":{"marker-size":"medium","location":"stops.else.chats","marker-symbol":"cross","marker-color":"#000000","rgb-string":"#000000"}},{"type":"Feature","geometry":{"type":"Point","coordinates":[-3.188463,55.945761]},"properties":{"marker-size":"medium","location":"bend.tubes.chops","marker-symbol":"danger","marker-color":"#ff8000","rgb-string":"#ff8000"}},{"type":"Feature","geometry":{"type":"LineString","coordinates":[[-3.188396,55.944425],[-3.1881662,55.9442322],[-3.1878843,55.9443348],[-3.1876545,55.9441419],[-3.1875045,55.9438821],[-3.1877343,55.9436893],[-3.1879641,55.9434965],[-3.1878615,55.9432145],[-3.1877589,55.9429326],[-3.1874589,55.9429326],[-3.1871634,55.9428805],[-3.186868,55.9429326],[-3.1865726,55.9429847],[-3.1862726,55.9429847],[-3.1859771,55.9430368],[-3.1856771,55.9430368],[-3.1854473,55.9432297],[-3.1852175,55.9434225],[-3.1849877,55.9436153],[-3.1847579,55.9438082],[-3.1850177,55.9439582],[-3.1852775,55.9441082],[-3.1855373,55.9442582],[-3.1853075,55.944451],[-3.1850075,55.944451],[-3.1849049,55.9447329],[-3.1846451,55.9448829],[-3.1845424,55.9451648],[-3.1848023,55.9453148],[-3.1850321,55.9455077],[-3.1852919,55.9456577],[-3.1855217,55.9458505],[-3.1857815,55.9460005],[-3.1860769,55.9459484],[-3.1863068,55.9457556],[-3.1865666,55.9456056],[-3.1868264,55.9454556],[-3.1867238,55.9451737],[-3.1865738,55.9449139],[-3.1863809,55.944684],[-3.1866764,55.9446319],[-3.1869718,55.9445798],[-3.1872673,55.9445278],[-3.1875673,55.9445278],[-3.1878271,55.9446778],[-3.1880869,55.9448278],[-3.1883467,55.9449778],[-3.1886065,55.9451278],[-3.1885544,55.9454232],[-3.1884518,55.9457051],[-3.1887518,55.9457051],[-3.1890337,55.9456025],[-3.1893291,55.9456546],[-3.1896246,55.9457067],[-3.18992,55.9457588],[-3.1902155,55.9458109],[-3.1905109,55.945863],[-3.1908063,55.9459151],[-3.1911018,55.9459672],[-3.1911018,55.9456672],[-3.1910497,55.9453717],[-3.1910497,55.9450717],[-3.1911018,55.9447763],[-3.1911539,55.9444808],[-3.191206,55.9441854],[-3.1911034,55.9439035],[-3.1911034,55.9436035],[-3.1909105,55.9433737],[-3.1907605,55.9431139],[-3.1906579,55.9433958],[-3.1905553,55.9436777],[-3.1904527,55.9439596],[-3.1903027,55.9436998],[-3.1902001,55.9434179],[-3.1900975,55.943136],[-3.1899047,55.9429061],[-3.1896092,55.9429582],[-3.1893138,55.9430103],[-3.1894638,55.9432701],[-3.1895159,55.9435656],[-3.1892204,55.9436177],[-3.188925,55.9436698],[-3.1887322,55.9438996],[-3.1885822,55.9441594],[-3.1883893,55.9443892]]},"properties":{}}]}