{"type":"FeatureCollection","features":[{"type":"Feature","geometry":{"type":"Polygon","coordinates":[[[-3.1871805,55.9444875],[-3.1870423,55.9441939],[-3.1869766,55.9442036],[-3.1868975,55.9440482],[-3.1863302,55.9441323],[-3.1864053,55.9442967],[-3.1863034,55.944311],[-3.1863396,55.9443711],[-3.1864093,55.9443621],[-3.1864254,55.9443974],[-3.1862269,55.9444237],[-3.1863946,55.9445701],[-3.1864308,55.9445859],[-3.1864884,55.9445919],[-3.1871805,55.9444875]]]},"properties":{"name":"Appleton Tower","fill":"#ff0000"}},{"type":"Feature","geometry":{"type":"Polygon","coordinates":[[[-3.1866977,55.9433602],[-3.1865562,55.9430666],[-3.1863456,55.9430985],[-3.1864864,55.9433925],[-3.1866977,55.9433602]]]},"properties":{"name":"David Hume Tower","fill":"#ff0000"}},{"type":"Feature","geometry":{"type":"Polygon","coordinates":[[[-3.1897084,55.9428082],[-3.1894751,55.9423313],[-3.1882721,55.9425145],[-3.1885055,55.942993],[-3.1897084,55.9428082]]]},"properties":{"name":"Main Library","fill":"#ff0000"}},{"type":"Feature","geometry":{"type":"Polygon","coordinates":[[[-3.188079,55.945418],[-3.1876338,55.9445829],[-3.1869176,55.9447015],[-3.1870463,55.9449419],[-3.1869096,55.9449644],[-3.1867808,55.9448157],[-3.1865662,55.9448773],[-3.1871134,55.9455532],[-3.1872958,55.9455051],[-3.1878322,55.9454601],[-3.188079,55.945418]]]},"properties":{"name":"Informatics Forum","fill":"#ff0000"}},{"type":"Feature","geometry":{"type":"Point","coordinates":[-3.190727,55.943092]},"properties":{"marker-size":"medium","location":"relate.chill.vest","marker-symbol":"lighthouse","marker-color":"#40ff00","rgb-string":"#40ff00"}},{"type":"Feature","geometry":{"type":"Point","coordinates":[-3.190053,55.943173]},"properties":{"marker-size":"medium","location":"shows.fries.lamp","marker-symbol":"lighthouse","marker-color":"#40ff00","rgb-string":"#40ff00"}},{"type":"Feature","geometry":{"type":"Point","coordinates":[-3.186777,55.944575]},"properties":{"marker-size":"medium","location":"artist.gets.react","marker-symbol":"cross","marker-color":"#000000","rgb-string":"#000000"}},{"type":"Feature","geometry":{"type":"Point","coordinates":[-3.18933,55.945653]},"properties":{"marker-size":"medium","location":"museum.spicy.horns","marker-symbol":"danger","marker-color":"#ffc000","rgb-string":"#ffc000"}},{"type":"Feature","geometry":{"type":"Point","coordinates":[-3.188801,55.945437]},"properties":{"marker-size":"medium","location":"shady.soft.phones","marker-symbol":"lighthouse","marker-color":"#c0ff00","rgb-string":"#c0ff00"}},{"type":"Feature","geometry":{"type":"Point","coordinates":[-3.191065,55.94444]},"properties":{"marker-size":"medium","location":"paying.crowd.weep","marker-symbol":"lighthouse","marker-color":"#40ff00","rgb-string":"#40ff00"}},{"type":"Feature","geometry":{"type":"Point","coordinates":[-3.191065,55.944709]},"properties":{"marker-size":"medium","location":"estate.gave.votes","marker-symbol":"lighthouse","marker-color":"#40ff00","rgb-string":"#40ff00"}},{"type":"Feature","geometry":{"type":"Point","coordinates":[-3.18514,55.943685]},"properties":{"marker-size":"medium","location":"hello.love.keys","marker-symbol":"danger","marker-color":"#ffc000","rgb-string":"#ffc000"}},{"type":"Feature","geometry":{"type":"Point","coordinates":[-3.188271,55.944063]},"properties":{"marker-size":"medium","location":"rush.crown.link","marker-symbol":"lighthouse","marker-color":"#40ff00","rgb-string":"#40ff00"}},{"type":"Feature","geometry":{"type":"Point","coordinates":[-3.185621,55.945761]},"properties":{"marker-size":"medium","location":"shed.desire.muddy","marker-symbol":"danger","marker-color":"#ffc000","rgb-string":"#ffc000"}},{"type":"Feature","geometry":{"type":"Point","coordinates":[-3.186296,55.945761]},"properties":{"marker-size":"medium","location":"posts.kicked.universally","marker-symbol":"danger","marker-color":"#ff4000","rgb-string":"#ff4000"}},{"type":"Feature","geometry":{"type":"Point","coordinates":[-3.186103,55.944251]},"properties":{"marker-size":"medium","location":"organs.shape.fantastic","marker-symbol":"lighthouse","marker-color":"#c0ff00","rgb-string":"#c0ff00"}},{"type":"Feature","geometry":{"type":"Point","coordinates":[-3.190583,55.942823]},"properties":{"marker-size":"medium","location":"tonic.bliss.cove","marker-symbol":"lighthouse","marker-color":"#40ff00","rgb-string":"#40ff00"}},{"type":"Feature","geometry":{"type":"Point","coordinates":[-3.184465,55.944952]},"properties":{"marker-size":"medium","location":"sports.topic.clocks","marker-symbol":"danger","marker-color":"#ff4000","rgb-string":"#ff4000"}},{"type":"Feature","geometry":{"type":"Point","coordinates":[-3.187307,55.944494]},"properties":{"marker-size":"medium","location":"only.fairly.rift","marker-symbol":"lighthouse","marker-color":"#c0ff00","rgb-string":"#c0ff00"}},{"type":"Feature","geometry":{"type":"Point","coordinates":[-3.185573,55.942877]},"properties":{"marker-size":"medium","location":"dent.shins.cycle","marker-symbol":"danger","marker-color":"#ff8000","rgb-string":"#ff8000"}},{"type":"Feature","geometry":{"type":"Point","coordinates":[-3.186248,55.942796]},"properties":{"marker-size":"medium","location":"under.retire.bump","marker-symbol":"danger","marker-color":"#ff0000","rgb-string":"#ff0000"}},{"type":"Feature","geometry":{"type":"Point","coordinates":[-3.189138,55.944197]},"properties":{"marker-size":"medium","location":"spoon.invest.every","marker-symbol":"lighthouse","marker-color":"#40ff00","rgb-string":"#40ff00"}},{"type":"Feature","geometry":{"type":"Point","coordinates":[-3.186729,55.945168]},"properties":{"marker-size":"medium","location":"dragon.bottle.crisp","marker-symbol":"danger","marker-color":"#ff8000","rgb-string":"#ff8000"}},{"type":"Feature","geometry":{"type":"Point","coordinates":[-3.188945,55.943928]},"properties":{"marker-size":"medium","location":"noted.friday.jams","marker-symbol":"lighthouse","marker-color":"#00ff00","rgb-string":"#00ff00"}},{"type":"Feature","geometry":{"type":"Point","coordinates":[-3.191016,55.945248]},"properties":{"marker-size":"medium","location":"maple.limit.hotels","marker-symbol":"danger","marker-color":"#ff0000","rgb-string":"#ff0000"}},{"type":"Feature","geometry":{"type":"Point","coordinates":[-3.18856,55.946057]},"properties":{"marker-size":"medium","location":"boost.radar.stress","marker-symbol":"cross","marker-color":"#000000","rgb-string":"#000000"}},{"type":"Feature","geometry":{"type":"Point","coordinates":[-3.192221,55.945114]},"properties":{"marker-size":"medium","location":"useful.hike.trades","marker-symbol":"danger","marker-color":"#ffc000","rgb-string":"#ffc000"}},{"type":"Feature","geometry":{"type":"Point","coordinates":[-3.191113,55.943901]},"properties":{"marker-size":"medium","location":"spicy.bunch.shady","marker-symbol":"cross","marker-color":"#000000","rgb-string":"#000000"}},{"type":"Feature","geometry":{"type":"Point","coordinates":[-3.18986,55.945491]},"properties":{"marker-size":"medium","location":"turkey.limit.ramp","marker-symbol":"danger","marker-color":"#ff4000","rgb-string":"#ff4000"}},{"type":"Feature","geometry":{"type":"Point","coordinates":[-3.189379,55.945949]},"properties":{"marker-size":"medium","location":"coherent.saints.stuck","marker-symbol":"danger","marker-color":"#ff0000","rgb-string":"#ff0000"}},{"type":"Feature","geometry":{"type":"Point","coordinates":[-3.189379,55.943281]},"properties":{"marker-size":"medium","location":"rents.cone.stove","marker-symbol":"lighthouse","marker-color":"#40ff00","rgb-string":"#40ff00"}},{"type":"Feature","geometry":{"type":"Point","coordinates":[-3.185236,55.944575]},"properties":{"marker-size":"medium","location":"acid.chair.butter","marker-symbol":"danger","marker-color":"#ff0000","rgb-string":"#ff0000"}},{"type":"Feature","geometry":{"type":"Point","coordinates":[-3.187837,55.943227]},"properties":{"marker-size":"medium","location":"gums.clock.modes","marker-symbol":"lighthouse","marker-color":"#80ff00","rgb-string":"#80ff00"}},{"type":"Feature","geometry":{"type":"Point","coordinates":[-3.1875,55.943874]},"properties":{"marker-size":"medium","location":"begins.spider.drips","marker-symbol":"lighthouse","marker-color":"#c0ff00","rgb-string":"#c0ff00"}},{"type":"Feature","geometry":{"type":"Point","coordinates":[-3.189764,55.942661]},"properties":{"marker-size":"medium","location":"hooked.shine.third","marker-symbol":"lighthouse","marker-color":"#40ff00","rgb-string":"#40ff00"}},{"type":"Feature","geometry":{"type":"Point","coordinates":[-3.188608,55.943119]},"properties":{"marker-size":"medium","location":"groups.ideas.script","marker-symbol":"lighthouse","marker-color":"#40ff00","rgb-string":"#40ff00"}},{"type":"Feature","geometry":{"type":"Point","coordinates":[-3.187404,55.945949]},"properties":{"marker-size":"medium","location":"slips.mass.baking","marker-symbol":"danger","marker-color":"#ff8000","rgb-string":"#ff8000"}},{"type":"Feature","geometry":{"type":"LineString","coordinates":[[-3.188396,55.944425],[-3.1882934,55.9441431],[-3.1885753,55.9440405],[-3.1888572,55.9439379],[-3.189087,55.9441307],[-3.1890349,55.9444262],[-3.1889828,55.9447216],[-3.1889307,55.945017],[-3.1888281,55.945299],[-3.1888281,55.945599],[-3.1885683,55.945749],[-3.1885683,55.946049],[-3.1888502,55.9459463],[-3.18911,55.9460963],[-3.1893698,55.9459463],[-3.1893178,55.9456509],[-3.1895776,55.9455009],[-3.1898776,55.9455009],[-3.1901595,55.9453983],[-3.1904595,55.9453983],[-3.1907193,55.9452483],[-3.1910193,55.9452483],[-3.1913147,55.9451962],[-3.1916102,55.9451441],[-3.1919102,55.9451441],[-3.1922056,55.945092],[-3.1919237,55.9449894],[-3.1916418,55.9448868],[-3.1913599,55.9447842],[-3.1910644,55.9447321],[-3.1910644,55.9444321],[-3.1912144,55.9441723],[-3.1911118,55.9438904],[-3.1910092,55.9436085],[-3.1909066,55.9433266],[-3.1907138,55.9430968],[-3.1905638,55.9428369],[-3.190304,55.9429869],[-3.1900742,55.9431798],[-3.1899242,55.94292],[-3.1897742,55.9426602],[-3.1896716,55.9429421],[-3.1894787,55.9431719],[-3.1891787,55.9431719],[-3.1888968,55.9430693],[-3.1886014,55.9431214],[-3.1883059,55.9431735],[-3.1880105,55.9432256],[-3.1877807,55.9434184],[-3.1875209,55.9435684],[-3.1875209,55.9438684],[-3.1874183,55.9441503],[-3.1873157,55.9444322],[-3.1870858,55.9446251],[-3.1867904,55.9446772],[-3.1865606,55.94487],[-3.1867106,55.9451298],[-3.1865606,55.94487],[-3.1867534,55.9446402],[-3.186458,55.9446923],[-3.1861982,55.9445423],[-3.1860956,55.9442604],[-3.1861477,55.9439649],[-3.1861477,55.9436649],[-3.1861998,55.9433695],[-3.1861477,55.943074],[-3.1862503,55.9427921],[-3.1859548,55.9428442],[-3.1856548,55.9428442],[-3.1855048,55.943104],[-3.1853548,55.9433638],[-3.1852048,55.9436236],[-3.1852048,55.9439236],[-3.1852048,55.9442236],[-3.1852569,55.9445191],[-3.1849971,55.9446691],[-3.1847373,55.9448191],[-3.1844775,55.9449691],[-3.1847373,55.9451191],[-3.1849671,55.9453119],[-3.1852269,55.9454619],[-3.1854567,55.9456548],[-3.1857522,55.9457069],[-3.186012,55.9458569],[-3.1862939,55.9457542],[-3.1865893,55.9457022],[-3.1868491,55.9458522],[-3.1871446,55.9458001],[-3.1874044,55.9459501],[-3.1875972,55.9457202],[-3.187857,55.9455702],[-3.1881168,55.9454202],[-3.1882195,55.9451383],[-3.1882715,55.9448429],[-3.1883742,55.944561]]},"properties":{}}]}